[
  {
    "id": "1",
    "coordinates": [49.251609, 39.410096],
    "title": "Точка 1",
    "address": "Нефтечалинский район, Азербайджан",
    "label": "посёлок городского типа Банк"
  },
  {
    "id": "2",
    "coordinates": [51.386033, 35.715817],
    "title": "Точка 2",
    "address": "Дистрикт 6, Тегеран, Иран",
    "label": "Банк"
  },
  {
    "id": "3",
    "coordinates": [51.41919, 35.690964],
    "title": "Точка 3",
    "address": "Дистрикт 12, Тегеран, Иран",
    "label": "Банк"
  },
  {
    "id": "4",
    "coordinates": [51.464986, 35.785208],
    "title": "Точка 4",
    "address": "Дистрикт 3, Тегеран, Иран",
    "label": "Банк"
  },
  {
    "id": "5",
    "coordinates": [-0.090245, 51.513198],
    "title": "Точка 5",
    "address": "линия Ватерлоо-энд-Сити, Лондон, Великобритания",
    "label": "метро Банк"
  },
  {
    "id": "6",
    "coordinates": [-0.088511, 51.513248],
    "title": "Точка 6",
    "address": "Доклендское лёгкое метро, Лондон, Великобритания",
    "label": "метро Банк"
  },
  {
    "id": "7",
    "coordinates": [-0.087891, 51.512127],
    "title": "Точка 7",
    "address": "Северная линия, Лондон, Великобритания",
    "label": "метро Банк"
  },
  {
    "id": "8",
    "coordinates": [19.053195, 47.503367],
    "title": "Точка 8",
    "address": "Будапешт, Венгрия",
    "label": "улица Банк"
  },
  {
    "id": "9",
    "coordinates": [73.03738, 33.569943],
    "title": "Точка 9",
    "address": "Равалпинди, провинция Пенджаб, Пакистан",
    "label": "Банк-Колони"
  },
  {
    "id": "10",
    "coordinates": [48.122929, 45.76294],
    "title": "Точка 10",
    "address": "Караулинский сельсовет, Камызякский район, Астраханская область, Россия",
    "label": "остров Кривой Банк"
  },
  {
    "id": "11",
    "coordinates": [19.133325, 47.540535],
    "title": "Точка 11",
    "address": "Будапешт, Венгрия",
    "label": "улица Банк"
  },
  {
    "id": "12",
    "coordinates": [0.28632, 43.096737],
    "title": "Точка 12",
    "address": "Округ Баньер-де-Бигор, Верхние Пиренеи, Окситания, Франция",
    "label": "Банк"
  },
  {
    "id": "13",
    "coordinates": [0.916416, 43.260107],
    "title": "Точка 13",
    "address": "Округ Сен-Годан, Верхняя Гаронна, Окситания, Франция",
    "label": "Банк"
  },
  {
    "id": "14",
    "coordinates": [49.01987, 46.417976],
    "title": "Точка 14",
    "address": "Округ Сен-Годан, Верхняя Гаронна, Окситания, Франция",
    "label": "река Иголкин Банк"
  },
  {
    "id": "15",
    "title": "Точка 15",
    "coordinates": [28.113379, -26.096154],
    "address": "Сандтон, Йоханнесбург, провинция Гаутенг, Южно-Африканская Республика",
    "label": "Фар-Ист-Банк"
  },
  {
    "id": "16",
    "coordinates": [28.108869, -26.101556],
    "title": "Точка 16",
    "address": "Сандтон, Йоханнесбург, провинция Гаутенг, Южно-Африканская Республика",
    "label": "Александра-Ист-Банк"
  },
  {
    "id": "17",
    "coordinates": [21.731702, 47.4709],
    "title": "Точка 17",
    "address": "Дебрецен, вармедье Хайду-Бихар, Венгрия",
    "label": "Банк"
  },
  {
    "id": "18",
    "coordinates": [27.50724, -26.313695],
    "title": "Точка 18",
    "address": "Metrorail Gauteng, Южно-Африканская Республика",
    "label": "Банк-Стейшен"
  },
  {
    "id": "19",
    "coordinates": [19.17542, 47.924503],
    "title": "Точка 19",
    "address": "медье Ноград, Венгрия",
    "label": "Банк"
  },
  {
    "id": "20",
    "coordinates": [-0.089337, 51.513372],
    "title": "Точка 20",
    "address": "Центральная линия, Англия, Великобритания",
    "label": "метро Банк"
  },
  {
    "id": "21",
    "coordinates": [151.189526, -33.870044],
    "title": "Точка 21",
    "address": "Сидней, Новый Южный Уэльс, Австралия",
    "label": "улица Банк"
  },
  {
    "id": "22",
    "coordinates": [30.148108, 55.244609],
    "title": "Точка 22",
    "address": "Бабиничский сельсовет, Витебский район, Беларусь",
    "label": "садоводческое товарищество Банк"
  },
  {
    "id": "23",
    "coordinates": [70.817347, 31.920535],
    "title": "Точка 23",
    "address": "Пакистан",
    "label": "Чашма-Райт-Банк-Канал"
  },
  {
    "id": "24",
    "coordinates": [19.183703, 47.920403],
    "title": "Точка 24",
    "address": "медье Ноград, Венгрия",
    "label": "Банк"
  },
  {
    "id": "25",
    "coordinates": [6.066018, 50.82792],
    "title": "Точка 25",
    "address": "Херцогенрат, район Ахен, земля Северный Рейн-Вестфалия, Германия",
    "label": "Банк"
  },
  {
    "id": "26",
    "coordinates": [1.06984, 43.273216],
    "title": "Точка 26",
    "address": "Ле Фуссере, Округ Мюре, Верхняя Гаронна, Окситания, Франция",
    "label": "Банк"
  },
  {
    "id": "27",
    "coordinates": [1.070756, 43.27344],
    "title": "Точка 27",
    "address": "Ле Фуссере, Округ Мюре, Верхняя Гаронна, Окситания, Франция",
    "label": "Банк"
  },
  {
    "id": "28",
    "coordinates": [4.222702, 51.17567],
    "title": "Точка 28",
    "address": "Беверен, провинция Восточная Фландрия, Бельгия",
    "label": "Банк"
  },
  {
    "id": "29",
    "coordinates": [-1.59159, 50.867701],
    "title": "Точка 29",
    "address": "графство Гэмпшир, Англия, Великобритания",
    "label": "Банк"
  },
  {
    "id": "30",
    "coordinates": [-60.793154, -52.074578],
    "title": "Точка 30",
    "address": "Фолклендские острова",
    "label": "Пит-Банк-Хилл"
  },
  {
    "id": "31",
    "coordinates": [91.51516, 53.640685],
    "title": "Точка 31",
    "address": "дачный район Подсинее, Абакан, Республика Хакасия, Россия",
    "label": "СОСН Подсинее-Банк"
  },
  {
    "id": "32",
    "coordinates": [74.416735, 31.573136],
    "title": "Точка 32",
    "address": "Лахор, провинция Пенджаб, Пакистан",
    "label": "Канал-Банк-Хаусинг-Шеме"
  },
  {
    "id": "33",
    "coordinates": [48.795965, 46.112221],
    "title": "Точка 33",
    "address": "Цветновский сельсовет, Володарский район, Астраханская область, Россия",
    "label": "река Сухонский Банк"
  },
  {
    "id": "34",
    "coordinates": [-55.756112, 47.098476],
    "title": "Точка 34",
    "address": "провинция Ньюфаундленд и Лабрадор, Канада",
    "label": "город Гранд Банк"
  },
  {
    "id": "35",
    "coordinates": [48.77702, 46.05139],
    "title": "Точка 35",
    "address": "Володарский район, Астраханская область, Россия",
    "label": "река Ушаковский Банк"
  },
  {
    "id": "36",
    "coordinates": [48.783182, 45.975932],
    "title": "Точка 36",
    "address": "Маковский сельсовет, Володарский район, Астраханская область, Россия",
    "label": "река Старый Белинский Банк"
  },
  {
    "id": "37",
    "coordinates": [74.314461, 31.539082],
    "title": "Точка 37",
    "address": "Икххра, Лахор, провинция Пенджаб, Пакистан",
    "label": "Стейт-Банк-Колони"
  },
  {
    "id": "38",
    "coordinates": [51.452086, 35.749283],
    "title": "Точка 38",
    "address": "Дистрикт 4, Тегеран, Иран",
    "label": "Ото Банк"
  },
  {
    "id": "39",
    "coordinates": [-1.538293, 53.798501],
    "title": "Точка 39",
    "address": "Лидс, Англия, Великобритания",
    "label": "Банк"
  },
  {
    "id": "40",
    "coordinates": [47.005713, 44.845746],
    "title": "Точка 40",
    "address": "Лаганский район, Республика Калмыкия, Россия",
    "label": "залив Даргинский Банк"
  },
  {
    "id": "41",
    "coordinates": [48.108538, 45.76421],
    "title": "Точка 41",
    "address": "Камызякский район, Астраханская область, Россия",
    "label": "река Створный Банк"
  },
  {
    "id": "42",
    "coordinates": [92.88077, 56.109692],
    "title": "Точка 42",
    "address": "Солонцовский сельсовет, Емельяновский район, Красноярский край, Россия",
    "label": "садоводческое товарищество Банк"
  },
  {
    "id": "43",
    "coordinates": [47.458032, 43.604994],
    "title": "Точка 43",
    "address": "Бабаюртовский район, Республика Дагестан, Россия",
    "label": "река Главный Банк"
  },
  {
    "id": "44",
    "coordinates": [77.267915, 28.623287],
    "title": "Точка 44",
    "address": "Синяя линия, Индия",
    "label": "Ямуна-Банк-Метро-Стейшен"
  },
  {
    "id": "45",
    "coordinates": [48.776598, 46.165107],
    "title": "Точка 45",
    "address": "Цветновский сельсовет, Володарский район, Астраханская область, Россия",
    "label": "река Новый Банк"
  },
  {
    "id": "46",
    "coordinates": [-0.019979, 51.503096],
    "title": "Точка 46",
    "address": "Лондон, Великобритания",
    "label": "улица Банк"
  },
  {
    "id": "47",
    "coordinates": [46.988187, 45.042534],
    "title": "Точка 47",
    "address": "Лаганский район, Республика Калмыкия, Россия",
    "label": "озеро Джилькитинский Банк"
  },
  {
    "id": "48",
    "coordinates": [72.661498, 34.068161],
    "title": "Точка 48",
    "address": "город Топи, Саби-Дистрикт, провинция Хайбер-Пахтунхва, Пакистан",
    "label": "Райт-Банк-Колони"
  },
  {
    "id": "49",
    "coordinates": [-77.433664, 37.537406],
    "title": "Точка 49",
    "address": "Ричмонд, Вирджиния, Соединённые Штаты Америки",
    "label": "улица Банк"
  },
  {
    "id": "50",
    "coordinates": [-0.206684, 5.542088],
    "title": "Точка 50",
    "address": "Аккра, Большая Аккра, Гана",
    "label": "переулок Банк"
  }
]
